<?xml version="1.0" encoding="utf-8" ?>
<Stations>
  <Station>
    <Code>863578</Code>
    <Name>וייצמן/מרבד הקסמים</Name>
    <Longtitude>33.172806292852762</Longtitude>
    <Latitude>35.066887414067466</Latitude>
    <IsActive>true</IsActive>
  </Station>
  <Station>
    <Code>457888</Code>
    <Name>העצמאות/ששת הימים</Name>
    <Longtitude>31.022908600709822</Longtitude>
    <Latitude>35.48333018887012</Latitude>
    <IsActive>true</IsActive>
  </Station>
  <Station>
    <Code>345221</Code>
    <Name>העצמאות/ראובן</Name>
    <Longtitude>31.770262626684392</Longtitude>
    <Latitude>34.783390598410456</Latitude>
    <IsActive>true</IsActive>
  </Station>
  <Station>
    <Code>789004</Code>
    <Name>העצמאות/וייצמן</Name>
    <Longtitude>31.369115387447696</Longtitude>
    <Latitude>34.746040709338168</Latitude>
    <IsActive>true</IsActive>
  </Station>
  <Station>
    <Code>388751</Code>
    <Name>בי''ס בר לב/בן יהודה</Name>
    <Longtitude>32.208209225073553</Longtitude>
    <Latitude>34.666281227751767</Latitude>
    <IsActive>true</IsActive>
  </Station>
  <Station>
    <Code>9856</Code>
    <Name>האילנות/מנחם בגין</Name>
    <Longtitude>31.363839092647581</Longtitude>
    <Latitude>34.959397865393846</Latitude>
    <IsActive>true</IsActive>
  </Station>
  <Station>
    <Code>667302</Code>
    <Name>האילנות/אלון</Name>
    <Longtitude>33.145161884857878</Longtitude>
    <Latitude>34.4615266474716</Latitude>
    <IsActive>true</IsActive>
  </Station>
  <Station>
    <Code>366792</Code>
    <Name>ספר גוונים/ארז</Name>
    <Longtitude>32.092447128702162</Longtitude>
    <Latitude>34.639834654675717</Latitude>
    <IsActive>true</IsActive>
  </Station>
  <Station>
    <Code>400897</Code>
    <Name>חיים הרצוג/דולב</Name>
    <Longtitude>31.124045992607272</Longtitude>
    <Latitude>34.414210576058458</Latitude>
    <IsActive>true</IsActive>
  </Station>
  <Station>
    <Code>113224</Code>
    <Name>מנחם בגין/יצחק רבין</Name>
    <Longtitude>32.334298236218416</Longtitude>
    <Latitude>34.362204167089516</Latitude>
    <IsActive>true</IsActive>
  </Station>
  <Station>
    <Code>448990</Code>
    <Name>יצחק רבין/פנחס ספיר</Name>
    <Longtitude>32.607458857217551</Longtitude>
    <Latitude>34.790691590351372</Latitude>
    <IsActive>true</IsActive>
  </Station>
  <Station>
    <Code>333432</Code>
    <Name>דרך הפרחים/יסמין</Name>
    <Longtitude>31.202813576954796</Longtitude>
    <Latitude>34.438989311893927</Latitude>
    <IsActive>true</IsActive>
  </Station>
  <Station>
    <Code>234350</Code>
    <Name>התאנה/האלון</Name>
    <Longtitude>32.590217515728533</Longtitude>
    <Latitude>34.945542173201936</Latitude>
    <IsActive>true</IsActive>
  </Station>
  <Station>
    <Code>837027</Code>
    <Name>התאנה/הגפן</Name>
    <Longtitude>31.400394177623276</Longtitude>
    <Latitude>35.125180006225207</Latitude>
    <IsActive>true</IsActive>
  </Station>
  <Station>
    <Code>449800</Code>
    <Name>דרך הפארק/הרב נריה</Name>
    <Longtitude>33.256597653104265</Longtitude>
    <Latitude>34.8373666965111</Latitude>
    <IsActive>true</IsActive>
  </Station>
  <Station>
    <Code>277628</Code>
    <Name>מנחם בגין/יעקב חזן</Name>
    <Longtitude>31.753131990206022</Longtitude>
    <Latitude>35.046480189425161</Latitude>
    <IsActive>true</IsActive>
  </Station>
  <Station>
    <Code>465033</Code>
    <Name>גורודסקי/יחיאל פלדי</Name>
    <Longtitude>32.92920160914268</Longtitude>
    <Latitude>34.757863327887776</Latitude>
    <IsActive>true</IsActive>
  </Station>
  <Station>
    <Code>676429</Code>
    <Name>מנוחה ונחלה/יהודה גורודיסקי</Name>
    <Longtitude>32.571466911850244</Longtitude>
    <Latitude>35.276989393763706</Latitude>
    <IsActive>true</IsActive>
  </Station>
  <Station>
    <Code>90805</Code>
    <Name>עוקשי/לוי אשכול</Name>
    <Longtitude>31.596774941355349</Longtitude>
    <Latitude>34.495843701342046</Latitude>
    <IsActive>true</IsActive>
  </Station>
  <Station>
    <Code>245559</Code>
    <Name>הגאון בן איש חי/צאלון</Name>
    <Longtitude>31.028470845254358</Longtitude>
    <Latitude>35.196688249007188</Latitude>
    <IsActive>true</IsActive>
  </Station>
  <Station>
    <Code>111332</Code>
    <Name>הראשונים/כביש 5700</Name>
    <Longtitude>31.615469271650291</Longtitude>
    <Latitude>34.973261321463276</Latitude>
    <IsActive>true</IsActive>
  </Station>
  <Station>
    <Code>777786</Code>
    <Name>בית הלוי ה</Name>
    <Longtitude>31.03764152542578</Longtitude>
    <Latitude>34.456326004004254</Latitude>
    <IsActive>true</IsActive>
  </Station>
  <Station>
    <Code>440000</Code>
    <Name>החבורה/דב הוז</Name>
    <Longtitude>31.810226145903684</Longtitude>
    <Latitude>34.729539206265258</Latitude>
    <IsActive>true</IsActive>
  </Station>
  <Station>
    <Code>335875</Code>
    <Name>כנף/ברוש</Name>
    <Longtitude>31.215281410149895</Longtitude>
    <Latitude>34.842414368569109</Latitude>
    <IsActive>true</IsActive>
  </Station>
  <Station>
    <Code>444098</Code>
    <Name>רשות שדות התעופה/העליה</Name>
    <Longtitude>31.135058059839093</Longtitude>
    <Latitude>35.409405233855082</Latitude>
    <IsActive>true</IsActive>
  </Station>
  <Station>
    <Code>772410</Code>
    <Name>ההרחבה/הותיקים</Name>
    <Longtitude>31.082367083375512</Longtitude>
    <Latitude>35.076811171684788</Latitude>
    <IsActive>true</IsActive>
  </Station>
  <Station>
    <Code>334442</Code>
    <Name>ההרחבה ב</Name>
    <Longtitude>33.168900175517841</Longtitude>
    <Latitude>34.825996738730929</Latitude>
    <IsActive>true</IsActive>
  </Station>
  <Station>
    <Code>109623</Code>
    <Name>ההרחבה/ א</Name>
    <Longtitude>31.582998271278569</Longtitude>
    <Latitude>34.942946475484845</Latitude>
    <IsActive>true</IsActive>
  </Station>
  <Station>
    <Code>129563</Code>
    <Name>הגפן/ההרחבה</Name>
    <Longtitude>32.26705396667451</Longtitude>
    <Latitude>35.372963001519892</Latitude>
    <IsActive>true</IsActive>
  </Station>
  <Station>
    <Code>123007</Code>
    <Name>הגפן/מורד התאנה</Name>
    <Longtitude>31.677832012939188</Longtitude>
    <Latitude>35.256333979850787</Latitude>
    <IsActive>true</IsActive>
  </Station>
  <Station>
    <Code>444980</Code>
    <Name>הערבה</Name>
    <Longtitude>31.526104469330097</Longtitude>
    <Latitude>34.867401935051845</Latitude>
    <IsActive>true</IsActive>
  </Station>
  <Station>
    <Code>110433</Code>
    <Name>הרותם/הדגניות</Name>
    <Longtitude>31.898313706460552</Longtitude>
    <Latitude>34.393003333962056</Latitude>
    <IsActive>true</IsActive>
  </Station>
  <Station>
    <Code>334096</Code>
    <Name>הרצל/גולני</Name>
    <Longtitude>33.248907029651527</Longtitude>
    <Latitude>34.943348902390966</Latitude>
    <IsActive>true</IsActive>
  </Station>
  <Station>
    <Code>229077</Code>
    <Name>מחנה צריפין/מועדון</Name>
    <Longtitude>32.634644299528858</Longtitude>
    <Latitude>34.961351568559813</Latitude>
    <IsActive>true</IsActive>
  </Station>
  <Station>
    <Code>489276</Code>
    <Name>הולצמן/המדע</Name>
    <Longtitude>32.038125829136987</Longtitude>
    <Latitude>35.092983021211339</Latitude>
    <IsActive>true</IsActive>
  </Station>
  <Station>
    <Code>289990</Code>
    <Name>מרכז לבריאות הנפש לב השרון</Name>
    <Longtitude>31.054574813439778</Longtitude>
    <Latitude>35.368875946974789</Latitude>
    <IsActive>true</IsActive>
  </Station>
  <Station>
    <Code>349867</Code>
    <Name>הגלעד/כרמל</Name>
    <Longtitude>31.190432758857696</Longtitude>
    <Latitude>35.299467352498077</Latitude>
    <IsActive>true</IsActive>
  </Station>
  <Station>
    <Code>555665</Code>
    <Name>חיים בר לב/שדרות יצחק רבין</Name>
    <Longtitude>32.803755381937954</Longtitude>
    <Latitude>34.465412864911094</Latitude>
    <IsActive>true</IsActive>
  </Station>
  <Station>
    <Code>909087</Code>
    <Name>שבזי/ויצמן</Name>
    <Longtitude>31.902850689414354</Longtitude>
    <Latitude>35.449489775276504</Latitude>
    <IsActive>true</IsActive>
  </Station>
  <Station>
    <Code>300090</Code>
    <Name>שבזי/שבת אחים</Name>
    <Longtitude>32.756170035226347</Longtitude>
    <Latitude>34.700139497593106</Latitude>
    <IsActive>true</IsActive>
  </Station>
  <Station>
    <Code>333</Code>
    <Name>אלי כהן/לוחמי הגטאות</Name>
    <Longtitude>32.022007755153815</Longtitude>
    <Latitude>35.166486941495208</Latitude>
    <IsActive>true</IsActive>
  </Station>
  <Station>
    <Code>200567</Code>
    <Name>הכלנית/הנרקיס</Name>
    <Longtitude>32.446536952092558</Longtitude>
    <Latitude>34.367950063416707</Latitude>
    <IsActive>true</IsActive>
  </Station>
  <Station>
    <Code>9999</Code>
    <Name>האירוס/הכלנית</Name>
    <Longtitude>31.947585751604095</Longtitude>
    <Latitude>35.116127257987912</Latitude>
    <IsActive>true</IsActive>
  </Station>
  <Station>
    <Code>456788</Code>
    <Name>ויצמן/הבנים</Name>
    <Longtitude>32.561853520880383</Longtitude>
    <Latitude>34.780543231256559</Latitude>
    <IsActive>true</IsActive>
  </Station>
  <Station>
    <Code>232321</Code>
    <Name>הדס/אלי כהן</Name>
    <Longtitude>31.294573107173</Longtitude>
    <Latitude>34.476949304610933</Latitude>
    <IsActive>true</IsActive>
  </Station>
  <Station>
    <Code>889209</Code>
    <Name>ל/משה שרת</Name>
    <Longtitude>31.605509038039255</Longtitude>
    <Latitude>34.738397837448119</Latitude>
    <IsActive>true</IsActive>
  </Station>
  <Station>
    <Code>232846</Code>
    <Name>חנה אברך/וולקני</Name>
    <Longtitude>32.997535081299738</Longtitude>
    <Latitude>34.558520374194956</Latitude>
    <IsActive>true</IsActive>
  </Station>
  <Station>
    <Code>404687</Code>
    <Name>מרכזית לוד/הורדה</Name>
    <Longtitude>32.192548007933674</Longtitude>
    <Latitude>35.253712467548304</Latitude>
    <IsActive>true</IsActive>
  </Station>
  <Station>
    <Code>300199</Code>
    <Name>פריד/ששת הימים</Name>
    <Longtitude>31.392103826344062</Longtitude>
    <Latitude>35.426635722781825</Latitude>
    <IsActive>true</IsActive>
  </Station>
  <Station>
    <Code>567223</Code>
    <Name>הנחשול/הדייגים</Name>
    <Longtitude>31.350717811356631</Longtitude>
    <Latitude>35.279377782428348</Latitude>
    <IsActive>true</IsActive>
  </Station>
</Stations>